[
  {
    "code":"AGP",
    "lat":"36.6749",
    "lon":"-4.49298",
    "name":"Malaga Airport",
    "city":"Malaga",
    "state":"Andalucia",
    "country":"Spain",
    "woeid":"23232917",
    "tz":"Europe\/Madrid",
    "phone":"+34 952 048 838",
    "type":"Airports",
    "email":"",
    "url":"http:\/\/www.aena.es\/csee\/Satellite?cid=1048858947193&pagename=Est",
    "runway_length":"10500",
    "elev":"52",
    "icao":"LEMG",
    "direct_flights":"106",
    "carriers":"59"
  },
  {
    "code":"AMS",
    "lat":"52.3122",
    "lon":"4.77511",
    "name":"Schiphol Airport",
    "city":"Schiphol Zuid",
    "state":"North Holland",
    "country":"Netherlands",
    "woeid":"22386730",
    "tz":"Europe\/Amsterdam",
    "phone":"+31-207940800",
    "type":"Airports",
    "email":"",
    "url":"http:\/\/www.schiphol.com\/",
    "runway_length":"12467",
    "elev":"-11",
    "icao":"EHAM",
    "direct_flights":"284",
    "carriers":"118"
  },
  {
    "code":"ARN",
    "lat":"59.6521",
    "lon":"17.9317",
    "name":"Arlanda Airport",
    "city":"Märst",
    "state":"Stockholm",
    "country":"Sweden",
    "woeid":"12517610",
    "tz":"Europe\/Stockholm",
    "phone":"+46 8 797 6000",
    "type":"Airports",
    "email":"",
    "url":"http:\/\/www.arlanda.se",
    "runway_length":"10827",
    "elev":"123",
    "icao":"ESSA",
    "direct_flights":"126",
    "carriers":"76"
  },
  {
    "code":"ATH",
    "lat":"37.8937",
    "lon":"23.7235",
    "name":"Eleftherios Venizelos International Airport",
    "city":"Athens",
    "state":"Attiki",
    "country":"Greece",
    "woeid":"12513286",
    "tz":"Europe\/Athens",
    "phone":"0030 210 353 0001",
    "type":"Airports",
    "email":"",
    "url":"http:\/\/www.aia.gr",
    "runway_length":"13123",
    "elev":"308",
    "icao":"LGAV",
    "direct_flights":"117",
    "carriers":"81"
  },
  {
    "code":"ATL",
    "lat":"33.6558",
    "lon":"-84.4333",
    "name":"Hartsfield-Jackson Atlanta International Airport",
    "city":"Atlanta",
    "state":"Georgia",
    "country":"United States",
    "woeid":"12522118",
    "tz":"America\/New_York",
    "phone":"(654) 57 8833",
    "type":"Airports",
    "email":"",
    "url":"http:\/\/www.atlanta-airport.com\/",
    "runway_length":"11889",
    "elev":"1026",
    "icao":"KATL",
    "direct_flights":"253",
    "carriers":"60"
  },
  {
    "code":"BCN",
    "lat":"41.3006",
    "lon":"2.07976",
    "name":"Barcelona International Airport",
    "city":"El Prat de Llobregat",
    "state":"Catalonia",
    "country":"Spain",
    "woeid":"22411879",
    "tz":"Europe\/Madrid",
    "phone":"",
    "type":"Airports",
    "email":"",
    "url":"http:\/\/www.aena.es",
    "runway_length":"11001",
    "elev":"15",
    "icao":"LEBL",
    "direct_flights":"145",
    "carriers":"90"
  },
  {
    "code":"BHX",
    "lat":"52.4531",
    "lon":"-1.73847",
    "name":"Birmingham International Airport",
    "city":"Birmingham",
    "state":"England",
    "country":"United Kingdom",
    "woeid":"22454274",
    "tz":"Europe\/London",
    "phone":"+44 (0)8707 335511",
    "type":"Airports",
    "email":"",
    "url":"http:\/\/www.bhx.co.uk\/",
    "runway_length":"7398",
    "elev":"325",
    "icao":"EGBB",
    "direct_flights":"103",
    "carriers":"45"
  },
  {
    "code":"BKK",
    "lat":"13.9144",
    "lon":"100.608",
    "name":"Bangkok International Airport",
    "city":"Lak Si",
    "state":"Bangkok",
    "country":"Thailand",
    "woeid":"12517747",
    "tz":"Asia\/Bangkok",
    "phone":"",
    "type":"Airports",
    "email":"",
    "url":"http:\/\/www.airportthai.co.th\/airportnew\/bia\/html\/",
    "runway_length":"12139",
    "elev":"12",
    "icao":"VTBS",
    "direct_flights":"132",
    "carriers":"113"
  },
  {
    "code":"BOS",
    "lat":"42.3717",
    "lon":"-71.0281",
    "name":"Gen E L Logan International Airport",
    "city":"Boston",
    "state":"Massachusetts",
    "country":"United States",
    "woeid":"12519874",
    "tz":"America\/New_York",
    "phone":"",
    "type":"Airports",
    "email":"",
    "url":"",
    "runway_length":"10081",
    "elev":"20",
    "icao":"KBOS",
    "direct_flights":"113",
    "carriers":"68"
  },
  {
    "code":"BRU",
    "lat":"50.899",
    "lon":"4.4859",
    "name":"Brussels Airport",
    "city":"Bruxelles",
    "state":"Vlaams Brabant",
    "country":"Belgium",
    "woeid":"22103751",
    "tz":"Europe\/Brussels",
    "phone":"+32 (0) 900 7 0000",
    "type":"Airports",
    "email":"",
    "url":"http:\/\/www.brusselsairport.be",
    "runway_length":"9790",
    "elev":"184",
    "icao":"EBBR",
    "direct_flights":"186",
    "carriers":"97"
  },
  {
    "code":"BUD",
    "lat":"47.4453",
    "lon":"19.2195",
    "name":"Ferihegy Airport",
    "city":"Budapest",
    "state":"Budapest",
    "country":"Hungary",
    "woeid":"12513389",
    "tz":"Europe\/Budapest",
    "phone":"(36) 1 2969696",
    "type":"Airports",
    "email":"",
    "url":"http:\/\/www.bud.hu",
    "runway_length":"9875",
    "elev":"440",
    "icao":"LHBP",
    "direct_flights":"102",
    "carriers":"64"
  },
  {
    "code":"CAN",
    "lat":"23.3925",
    "lon":"113.299",
    "name":"Baiyun Airport",
    "city":"Guangzhou",
    "state":"Guangdong",
    "country":"China",
    "woeid":"12511984",
    "tz":"Asia\/Chongqing",
    "phone":"0086-020-86120000",
    "type":"Airports",
    "email":"",
    "url":"",
    "runway_length":"11000",
    "elev":"45",
    "icao":"ZGGG",
    "direct_flights":"111",
    "carriers":"49"
  },
  {
    "code":"CDG",
    "lat":"49.0175",
    "lon":"2.5564",
    "name":"Charles de Gaulle International Airport",
    "city":"Le Mesnil-Amelot",
    "state":"Ile-de-France",
    "country":"France",
    "woeid":"22140453",
    "tz":"Europe\/Paris",
    "phone":"",
    "type":"Airports",
    "email":"",
    "url":"",
    "runway_length":"11811",
    "elev":"387",
    "icao":"LFPG",
    "direct_flights":"310",
    "carriers":"131"
  },
  {
    "code":"CGN",
    "lat":"50.8784",
    "lon":"7.12293",
    "name":"Cologne Bonn Airport",
    "city":"Cologne",
    "state":"North Rhine-Westphalia",
    "country":"Germany",
    "woeid":"23030981",
    "tz":"Europe\/Berlin",
    "phone":"",
    "type":"Airports",
    "email":"",
    "url":"http:\/\/www.koeln-bonn-airport.de\/index.php",
    "runway_length":"12467",
    "elev":"300",
    "icao":"EDDK",
    "direct_flights":"129",
    "carriers":"45"
  },
  {
    "code":"CLE",
    "lat":"41.4115",
    "lon":"-81.8339",
    "name":"Hopkins International Airport",
    "city":"Cleveland",
    "state":"Ohio",
    "country":"United States",
    "woeid":"12520226",
    "tz":"America\/New_York",
    "phone":"",
    "type":"Airports",
    "email":"",
    "url":"",
    "runway_length":"8998",
    "elev":"792",
    "icao":"KCLE",
    "direct_flights":"102",
    "carriers":"44"
  },
  {
    "code":"CLT",
    "lat":"35.2226",
    "lon":"-80.946",
    "name":"Douglas International Airport",
    "city":"Charlotte",
    "state":"North Carolina",
    "country":"United States",
    "woeid":"12519519",
    "tz":"America\/New_York",
    "phone":"",
    "type":"Airports",
    "email":"",
    "url":"http:\/\/www.charmeck.org\/Departments\/Airport\/Home.htm",
    "runway_length":"10000",
    "elev":"749",
    "icao":"KCLT",
    "direct_flights":"133",
    "carriers":"39"
  },
  {
    "code":"CPH",
    "lat":"55.6205",
    "lon":"12.6495",
    "name":"Copenhagen Airport",
    "city":"Kastrup",
    "state":"Hovedstaden",
    "country":"Denmark",
    "woeid":"22851127",
    "tz":"Europe\/Copenhagen",
    "phone":"",
    "type":"Airports",
    "email":"",
    "url":"http:\/\/www.cph.dk",
    "runway_length":"11811",
    "elev":"17",
    "icao":"EKCH",
    "direct_flights":"136",
    "carriers":"76"
  },
  {
    "code":"CVG",
    "lat":"39.0571",
    "lon":"-84.6625",
    "name":"Greater Cincinnati International Airport",
    "city":"Hebron",
    "state":"Ohio",
    "country":"United States",
    "woeid":"12519978",
    "tz":"America\/New_York",
    "phone":"",
    "type":"Airports",
    "email":"",
    "url":"",
    "runway_length":"9501",
    "elev":"891",
    "icao":"KCVG",
    "direct_flights":"115",
    "carriers":"39"
  },
  {
    "code":"DEN",
    "lat":"39.8396",
    "lon":"-104.672",
    "name":"Denver International Airport",
    "city":"Denver",
    "state":"Colorado",
    "country":"United States",
    "woeid":"12523052",
    "tz":"America\/Denver",
    "phone":"",
    "type":"Airports",
    "email":"",
    "url":"",
    "runway_length":"12000",
    "elev":"5333",
    "icao":"KDEN",
    "direct_flights":"162",
    "carriers":"57"
  },
  {
    "code":"DFW",
    "lat":"32.9222",
    "lon":"-97.0409",
    "name":"Fort Worth International Airport",
    "city":"Dallas",
    "state":"Texas",
    "country":"United States",
    "woeid":"12519786",
    "tz":"America\/Chicago",
    "phone":"",
    "type":"Airports",
    "email":"",
    "url":"",
    "runway_length":"11388",
    "elev":"603",
    "icao":"KDFW",
    "direct_flights":"179",
    "carriers":"62"
  },
  {
    "code":"DME",
    "lat":"55.4025",
    "lon":"37.9136",
    "name":"Domodedovo Airport",
    "city":"Podol'sk",
    "state":"Moskovskaya Oblast",
    "country":"Russia",
    "woeid":"12515946",
    "tz":"Europe\/Moscow",
    "phone":"",
    "type":"Airports",
    "email":"",
    "url":"http:\/\/www.domodedovo.ru",
    "runway_length":null,
    "elev":"512",
    "icao":"UUDD",
    "direct_flights":"165",
    "carriers":"71"
  },
  {
    "code":"DTW",
    "lat":"42.2327",
    "lon":"-83.3412",
    "name":"Detroit Metropolitan Wayne County Airport",
    "city":"Detroit",
    "state":"Michigan",
    "country":"United States",
    "woeid":"12519481",
    "tz":"America\/New_York",
    "phone":"",
    "type":"Airports",
    "email":"",
    "url":"http:\/\/www.metroairport.com\/",
    "runway_length":"10501",
    "elev":"639",
    "icao":"KDTW",
    "direct_flights":"161",
    "carriers":"45"
  },
  {
    "code":"DUB",
    "lat":"53.4272",
    "lon":"-6.24418",
    "name":"Dublin Airport",
    "city":"Cloghran",
    "state":"",
    "country":"Ireland",
    "woeid":"23388266",
    "tz":"Europe\/Dublin",
    "phone":"+353 1 8141111",
    "type":"Airports",
    "email":"",
    "url":"http:\/\/www.dub.aero",
    "runway_length":"7499",
    "elev":"222",
    "icao":"EIDW",
    "direct_flights":"167",
    "carriers":"54"
  },
  {
    "code":"DUS",
    "lat":"51.2794",
    "lon":"6.76481",
    "name":"Dusseldorf International Airport",
    "city":"Dusseldorf",
    "state":"North Rhine-Westphalia",
    "country":"Germany",
    "woeid":"23024911",
    "tz":"Europe\/Berlin",
    "phone":"",
    "type":"Airports",
    "email":"",
    "url":"http:\/\/www.duesseldorf-international.de\/",
    "runway_length":"9842",
    "elev":"147",
    "icao":"EDDL",
    "direct_flights":"167",
    "carriers":"74"
  },
  {
    "code":"DXB",
    "lat":"25.2509",
    "lon":"55.3629",
    "name":"Dubai International Airport",
    "city":"Dubai",
    "state":"Dubai",
    "country":"United Arab Emirates",
    "woeid":"23388362",
    "tz":"Asia\/Dubai",
    "phone":"+971 4 216 2525",
    "type":"Airports",
    "email":"",
    "url":"http:\/\/www.dubaiairport.com",
    "runway_length":"13123",
    "elev":"34",
    "icao":"OMDB",
    "direct_flights":"170",
    "carriers":"126"
  },
  {
    "code":"EWR",
    "lat":"40.6924",
    "lon":"-74.1843",
    "name":"Newark International Airport",
    "city":"Newark",
    "state":"New Jersey",
    "country":"United States",
    "woeid":"12521127",
    "tz":"America\/New_York",
    "phone":"",
    "type":"Airports",
    "email":"",
    "url":"",
    "runway_length":"11000",
    "elev":"18",
    "icao":"KEWR",
    "direct_flights":"220",
    "carriers":"64"
  },
  {
    "code":"FCO",
    "lat":"41.8026",
    "lon":"12.2551",
    "name":"Leonardo da Vinci International Airport",
    "city":"Rome",
    "state":"Lazio",
    "country":"Italy",
    "woeid":"22318195",
    "tz":"Europe\/Rome",
    "phone":"+39 06 65951",
    "type":"Airports",
    "email":"",
    "url":"http:\/\/www.adr.it\/",
    "runway_length":"12795",
    "elev":"14",
    "icao":"LIRF",
    "direct_flights":"181",
    "carriers":"124"
  },
  {
    "code":"FLL",
    "lat":"26.0722",
    "lon":"-80.1354",
    "name":"Fort Lauderdale Hollywood International Airport",
    "city":"Dania Beach",
    "state":"Florida",
    "country":"United States",
    "woeid":"12519836",
    "tz":"America\/New_York",
    "phone":"",
    "type":"Airports",
    "email":"",
    "url":"",
    "runway_length":"9001",
    "elev":"11",
    "icao":"KFLL",
    "direct_flights":"108",
    "carriers":"46"
  },
  {
    "code":"FRA",
    "lat":"50.0483",
    "lon":"8.57041",
    "name":"Frankfurt International Airport",
    "city":"Frankfurt",
    "state":"Hesse",
    "country":"Germany",
    "woeid":"22981759",
    "tz":"Europe\/Berlin",
    "phone":"+49 69 690 0",
    "type":"Airports",
    "email":"",
    "url":"http:\/\/www.airportcity-frankfurt.de",
    "runway_length":"13123",
    "elev":"364",
    "icao":"EDDF",
    "direct_flights":"337",
    "carriers":"131"
  },
  {
    "code":"GVA",
    "lat":"46.2329",
    "lon":"6.10682",
    "name":"Geneva Airport",
    "city":"Geneva",
    "state":"Canton of Geneva",
    "country":"Switzerland",
    "woeid":"23365569",
    "tz":"Europe\/Zurich",
    "phone":"+41 22 717 71 11",
    "type":"Airports",
    "email":"",
    "url":"http:\/\/www.gva.ch",
    "runway_length":"12796",
    "elev":"1411",
    "icao":"LSGG",
    "direct_flights":"122",
    "carriers":"71"
  },
  {
    "code":"HAM",
    "lat":"53.6321",
    "lon":"10.0042",
    "name":"Hamburg Airport",
    "city":"Hamburg",
    "state":"Hamburg",
    "country":"Germany",
    "woeid":"22211603",
    "tz":"Europe\/Berlin",
    "phone":"+49 (0)40\/5075-0",
    "type":"Airports",
    "email":"",
    "url":"http:\/\/www.hamburg-airport.de",
    "runway_length":"12024",
    "elev":"53",
    "icao":"EDDH",
    "direct_flights":"112",
    "carriers":"75"
  },
  {
    "code":"HEL",
    "lat":"60.3243",
    "lon":"24.9688",
    "name":"Helsinki Vantaa Airport",
    "city":"Vantaa",
    "state":"Southern Finland",
    "country":"Finland",
    "woeid":"12512766",
    "tz":"Europe\/Helsinki",
    "phone":"+358 200 14636",
    "type":"Airports",
    "email":"",
    "url":"http:\/\/www.helsinki-vantaa.fi\/",
    "runway_length":"11286",
    "elev":"179",
    "icao":"EFHK",
    "direct_flights":"104",
    "carriers":"53"
  },
  {
    "code":"HKG",
    "lat":"22.3124",
    "lon":"113.929",
    "name":"Hong Kong International Airport",
    "city":"Hong Kong",
    "state":"Hong Kong Island",
    "country":"Hong Kong",
    "woeid":"24875607",
    "tz":"Asia\/Hong_Kong",
    "phone":"+852 2188 7111",
    "type":"Airports",
    "email":"",
    "url":"http:\/\/www.hongkongairport.com\/",
    "runway_length":"12467",
    "elev":"19",
    "icao":"VHHH",
    "direct_flights":"131",
    "carriers":"87"
  },
  {
    "code":"IAD",
    "lat":"38.9556",
    "lon":"-77.4484",
    "name":"Dulles International Airport",
    "city":"Washington",
    "state":"Virginia",
    "country":"United States",
    "woeid":"12519544",
    "tz":"America\/New_York",
    "phone":"703-572-6001",
    "type":"Airports",
    "email":"",
    "url":"http:\/\/www.metwashairports.com\/Dulles\/",
    "runway_length":"11501",
    "elev":"313",
    "icao":"KIAD",
    "direct_flights":"150",
    "carriers":"63"
  },
  {
    "code":"IAH",
    "lat":"29.9784",
    "lon":"-95.3424",
    "name":"George Bush Intercontinental Airport",
    "city":"Houston",
    "state":"Texas",
    "country":"United States",
    "woeid":"12520245",
    "tz":"America\/Chicago",
    "phone":"",
    "type":"Airports",
    "email":"",
    "url":"",
    "runway_length":"12001",
    "elev":"98",
    "icao":"KIAH",
    "direct_flights":"210",
    "carriers":"54"
  },
  {
    "code":"ICN",
    "lat":"37.4534",
    "lon":"126.657",
    "name":"New Incheon International Airport",
    "city":"Incheon",
    "state":"Incheon",
    "country":"South Korea",
    "woeid":"24554859",
    "tz":"Asia\/Seoul",
    "phone":"",
    "type":"Airports",
    "email":"",
    "url":"http:\/\/www.airport.or.kr\/eng\/airport\/",
    "runway_length":"12300",
    "elev":"6",
    "icao":"RKSI",
    "direct_flights":"139",
    "carriers":"76"
  },
  {
    "code":"IST",
    "lat":"40.9857",
    "lon":"28.8163",
    "name":"Ataturk Hava Limani Airport",
    "city":"Bakırköy",
    "state":"Istanbul",
    "country":"Turkey",
    "woeid":"23388365",
    "tz":"Europe\/Istanbul",
    "phone":"",
    "type":"Airports",
    "email":"",
    "url":"",
    "runway_length":"9842",
    "elev":"157",
    "icao":"LTBA",
    "direct_flights":"157",
    "carriers":"79"
  },
  {
    "code":"JED",
    "lat":"21.706",
    "lon":"39.1386",
    "name":"King Abdul Aziz International Airport",
    "city":"Jeddah",
    "state":"Makka",
    "country":"Saudi Arabia",
    "woeid":"23388353",
    "tz":"Asia\/Riyadh",
    "phone":"",
    "type":"Airports",
    "email":"",
    "url":"",
    "runway_length":"12467",
    "elev":"48",
    "icao":"OEJN",
    "direct_flights":"106",
    "carriers":"54"
  },
  {
    "code":"JFK",
    "lat":"40.6437",
    "lon":"-73.79",
    "name":"John F Kennedy International Airport",
    "city":"Jamaica",
    "state":"New York",
    "country":"United States",
    "woeid":"12520380",
    "tz":"America\/New_York",
    "phone":"",
    "type":"Airports",
    "email":"",
    "url":"",
    "runway_length":"14572",
    "elev":"13",
    "icao":"KJFK",
    "direct_flights":"233",
    "carriers":"100"
  },
  {
    "code":"KUL",
    "lat":"2.77859",
    "lon":"101.689",
    "name":"Kuala Lumpur International Airport",
    "city":"Sepang",
    "state":"Putrajaya",
    "country":"Malaysia",
    "woeid":"28752278",
    "tz":"Asia\/Kuala_Lumpur",
    "phone":"+603 8776 4386",
    "type":"Airports",
    "email":"",
    "url":"http:\/\/www.klia.com.my\/",
    "runway_length":"4000",
    "elev":null,
    "icao":"WMKK",
    "direct_flights":"101",
    "carriers":"68"
  },
  {
    "code":"LAS",
    "lat":"36.0806",
    "lon":"-115.143",
    "name":"Mccarran International Airport",
    "city":"Las Vegas",
    "state":"Nevada",
    "country":"United States",
    "woeid":"12520849",
    "tz":"America\/Los_Angeles",
    "phone":"(702) 261-5211",
    "type":"Airports",
    "email":"",
    "url":"http:\/\/www.mccarran.com",
    "runway_length":"12636",
    "elev":"2174",
    "icao":"KLAS",
    "direct_flights":"130",
    "carriers":"64"
  },
  {
    "code":"LAX",
    "lat":"33.9456",
    "lon":"-118.391",
    "name":"Los Angeles International Airport",
    "city":"Los Angeles",
    "state":"California",
    "country":"United States",
    "woeid":"12520706",
    "tz":"America\/Los_Angeles",
    "phone":"",
    "type":"Airports",
    "email":"",
    "url":"",
    "runway_length":"12091",
    "elev":"126",
    "icao":"KLAX",
    "direct_flights":"200",
    "carriers":"99"
  },
  {
    "code":"LED",
    "lat":"59.9667",
    "lon":"30.3",
    "name":"Pulkuvo 2 Airport",
    "city":"St. Petersburg",
    "state":"St. Peterburg",
    "country":"Russia",
    "woeid":"12523047",
    "tz":"Europe\/Moscow",
    "phone":"",
    "type":"Airports",
    "email":"",
    "url":"",
    "runway_length":"11155",
    "elev":"59",
    "icao":"ULLI",
    "direct_flights":"121",
    "carriers":"58"
  },
  {
    "code":"LGW",
    "lat":"51.1568",
    "lon":"-0.16988",
    "name":"London Gatwick Airport",
    "city":"Horley",
    "state":"England",
    "country":"United Kingdom",
    "woeid":"23387567",
    "tz":"Europe\/London",
    "phone":"0870 000 2468",
    "type":"Airports",
    "email":"",
    "url":"http:\/\/www.gatwickairport.com\/",
    "runway_length":"10364",
    "elev":"202",
    "icao":"",
    "direct_flights":"227",
    "carriers":"71"
  },
  {
    "code":"LHR",
    "lat":"51.4703",
    "lon":"-0.45342",
    "name":"London Heathrow Airport",
    "city":"Hounslow",
    "state":"England",
    "country":"United Kingdom",
    "woeid":"23382429",
    "tz":"Europe\/London",
    "phone":"+44 (0)8700 000698",
    "type":"Airports",
    "email":"",
    "url":"http:\/\/www.heathrowairport.com",
    "runway_length":"12802",
    "elev":"80",
    "icao":"EGLL",
    "direct_flights":"227",
    "carriers":"105"
  },
  {
    "code":"LUX",
    "lat":"49.6269",
    "lon":"6.20685",
    "name":"Luxembourg Airport",
    "city":"Sandweiler",
    "state":"Luxemburg",
    "country":"Luxembourg",
    "woeid":"12514635",
    "tz":"Europe\/Luxembourg",
    "phone":"+352 2464 1",
    "type":"Airports",
    "email":"",
    "url":"http:\/\/www.luxair.lu",
    "runway_length":"13123",
    "elev":"1234",
    "icao":"ELLX",
    "direct_flights":"119",
    "carriers":"29"
  },
  {
    "code":"MAD",
    "lat":"40.4684",
    "lon":"-3.56769",
    "name":"Barajas Airport",
    "city":"Madrid",
    "state":"Madrid",
    "country":"Spain",
    "woeid":"12517539",
    "tz":"Europe\/Madrid",
    "phone":"00 34 902 404 704",
    "type":"Airports",
    "email":"",
    "url":"",
    "runway_length":"13451",
    "elev":"1998",
    "icao":"LEMD",
    "direct_flights":"186",
    "carriers":"93"
  },
  {
    "code":"MAN",
    "lat":"53.365",
    "lon":"-2.27089",
    "name":"Manchester International Airport",
    "city":"Manchester",
    "state":"England",
    "country":"United Kingdom",
    "woeid":"22478032",
    "tz":"Europe\/London",
    "phone":"+44 (0) 161 489 3000",
    "type":"Airports",
    "email":"",
    "url":"http:\/\/www.manchesterairport.co.uk",
    "runway_length":"10000",
    "elev":"256",
    "icao":"EGCC",
    "direct_flights":"129",
    "carriers":"79"
  },
  {
    "code":"MCO",
    "lat":"28.4418",
    "lon":"-81.3115",
    "name":"Orlando International Airport",
    "city":"Orlando",
    "state":"Florida",
    "country":"United States",
    "woeid":"12521243",
    "tz":"America\/New_York",
    "phone":"",
    "type":"Airports",
    "email":"",
    "url":"",
    "runway_length":"12004",
    "elev":"96",
    "icao":"KMCO",
    "direct_flights":"106",
    "carriers":"63"
  },
  {
    "code":"MIA",
    "lat":"25.7953",
    "lon":"-80.2727",
    "name":"Miami International Airport",
    "city":"Miami",
    "state":"Florida",
    "country":"United States",
    "woeid":"12520923",
    "tz":"America\/New_York",
    "phone":"(305) 876-7000",
    "type":"Airports",
    "email":"customerservice@miami-airport.com",
    "url":"http:\/\/www.miami-airport.com",
    "runway_length":"13000",
    "elev":"11",
    "icao":"KMIA",
    "direct_flights":"167",
    "carriers":"91"
  },
  {
    "code":"MSP",
    "lat":"44.8793",
    "lon":"-93.1987",
    "name":"Minneapolis St Paul International Airport",
    "city":"St. Paul",
    "state":"Minnesota",
    "country":"United States",
    "woeid":"12520966",
    "tz":"America\/Chicago",
    "phone":"",
    "type":"Airports",
    "email":"",
    "url":"http:\/\/mspairport.com",
    "runway_length":"11006",
    "elev":"841",
    "icao":"KMSP",
    "direct_flights":"171",
    "carriers":"41"
  },
  {
    "code":"MUC",
    "lat":"48.354",
    "lon":"11.7816",
    "name":"Franz-Josef-Strauss Airport",
    "city":"Oberding",
    "state":"Bavaria",
    "country":"Germany",
    "woeid":"22923040",
    "tz":"Europe\/Berlin",
    "phone":"",
    "type":"Airports",
    "email":"",
    "url":"http:\/\/www.munich-airport.de\/",
    "runway_length":"13100",
    "elev":"1737",
    "icao":"EDDM",
    "direct_flights":"213",
    "carriers":"95"
  },
  {
    "code":"MXP",
    "lat":"45.6314",
    "lon":"8.72284",
    "name":"Malpensa International Airport",
    "city":"Cardano al Campo",
    "state":"Lombardy",
    "country":"Italy",
    "woeid":"22306432",
    "tz":"Europe\/Rome",
    "phone":"",
    "type":"Airports",
    "email":"",
    "url":"http:\/\/www.sea-aeroportimilano.it\/",
    "runway_length":"12844",
    "elev":"768",
    "icao":"LIMC",
    "direct_flights":"163",
    "carriers":"109"
  },
  {
    "code":"ORD",
    "lat":"41.9796",
    "lon":"-87.8825",
    "name":"Chicago O'Hare International Airport",
    "city":"Chicago",
    "state":"Illinois",
    "country":"United States",
    "woeid":"12521200",
    "tz":"America\/Chicago",
    "phone":"",
    "type":"Airports",
    "email":"",
    "url":"http:\/\/www.flychicago.com\/ohare\/home.asp",
    "runway_length":"13000",
    "elev":"668",
    "icao":"KORD",
    "direct_flights":"222",
    "carriers":"85"
  },
  {
    "code":"ORY",
    "lat":"48.7261",
    "lon":"2.36411",
    "name":"Paris Orly Airport",
    "city":"Paris",
    "state":"Ile-de-France",
    "country":"France",
    "woeid":"22144181",
    "tz":"Europe\/Paris",
    "phone":"",
    "type":"Airports",
    "email":"",
    "url":"http:\/\/www.adp.fr",
    "runway_length":"11975",
    "elev":"292",
    "icao":"LFPO",
    "direct_flights":"138",
    "carriers":"52"
  },
  {
    "code":"OSL",
    "lat":"60.1947",
    "lon":"11.1005",
    "name":"Oslo Gardermoen Airport",
    "city":"Gardermoen",
    "state":"Akershus Fylke",
    "country":"Norway",
    "woeid":"12515119",
    "tz":"Europe\/Oslo",
    "phone":"+47 64812000",
    "type":"Airports",
    "email":"",
    "url":"http:\/\/www.osl.no",
    "runway_length":"11811",
    "elev":"681",
    "icao":"ENGM",
    "direct_flights":"116",
    "carriers":"59"
  },
  {
    "code":"PEK",
    "lat":"40.0724",
    "lon":"116.583",
    "name":"Beijing Capital Airport",
    "city":"Shunyi",
    "state":"Beijing",
    "country":"China",
    "woeid":"12511989",
    "tz":"Asia\/Shanghai",
    "phone":"",
    "type":"Airports",
    "email":"",
    "url":"http:\/\/www.bcia.com.cn",
    "runway_length":"12467",
    "elev":"115",
    "icao":"ZBAA",
    "direct_flights":"165",
    "carriers":"84"
  },
  {
    "code":"PHL",
    "lat":"39.8768",
    "lon":"-75.2419",
    "name":"Philadelphia International Airport",
    "city":"Philadelphia",
    "state":"Pennsylvania",
    "country":"United States",
    "woeid":"12521360",
    "tz":"America\/New_York",
    "phone":"",
    "type":"Airports",
    "email":"",
    "url":"http:\/\/www.phl.org",
    "runway_length":"10500",
    "elev":"21",
    "icao":"KPHL",
    "direct_flights":"133",
    "carriers":"51"
  },
  {
    "code":"PHX",
    "lat":"33.4376",
    "lon":"-112.03",
    "name":"Sky Harbor International Airport",
    "city":"Phoenix",
    "state":"Arizona",
    "country":"United States",
    "woeid":"12521872",
    "tz":"America\/Phoenix",
    "phone":"",
    "type":"Airports",
    "email":"",
    "url":"http:\/\/phoenix.gov\/Ahttp:\/\/phoenix.gov\/aviation",
    "runway_length":"11001",
    "elev":"1132",
    "icao":"KPHX",
    "direct_flights":"108",
    "carriers":"51"
  },
  {
    "code":"PMI",
    "lat":"39.5495",
    "lon":"2.73188",
    "name":"Palma de Mallorca Airport",
    "city":"Palma",
    "state":"Balearic Islands",
    "country":"Spain",
    "woeid":"23281165",
    "tz":"Europe\/Madrid",
    "phone":"",
    "type":"Airports",
    "email":"",
    "url":"",
    "runway_length":"10728",
    "elev":"15",
    "icao":"LEPA",
    "direct_flights":"109",
    "carriers":"57"
  },
  {
    "code":"PRG",
    "lat":"50.1079",
    "lon":"14.2675",
    "name":"Prague Ruzyne Airport",
    "city":"Prague 6",
    "state":"Hlavni mesto Praha",
    "country":"Czech Republic",
    "woeid":"12512558",
    "tz":"Europe\/Prague",
    "phone":"",
    "type":"Airports",
    "email":"",
    "url":"http:\/\/www.prg.aero",
    "runway_length":"10663",
    "elev":"1247",
    "icao":"KPRG",
    "direct_flights":"131",
    "carriers":"66"
  },
  {
    "code":"PVG",
    "lat":"31.1156",
    "lon":"121.803",
    "name":"Pudong International Airport",
    "city":"Huinan",
    "state":"Shanghai",
    "country":"China",
    "woeid":"23428057",
    "tz":"Asia\/Shanghai",
    "phone":"",
    "type":"Airports",
    "email":"",
    "url":"",
    "runway_length":null,
    "elev":null,
    "icao":"KPVG",
    "direct_flights":"131",
    "carriers":"76"
  },
  {
    "code":"SEA",
    "lat":"47.4405",
    "lon":"-122.296",
    "name":"Tacoma International Airport",
    "city":"Seattle",
    "state":"Washington",
    "country":"United States",
    "woeid":"12522066",
    "tz":"America\/Los_Angeles",
    "phone":"",
    "type":"Airports",
    "email":"",
    "url":"http:\/\/www.portseattle.org\/seatac\/",
    "runway_length":"11900",
    "elev":"429",
    "icao":"KSEA",
    "direct_flights":"109",
    "carriers":"59"
  },
  {
    "code":"SFO",
    "lat":"37.6148",
    "lon":"-122.392",
    "name":"San Francisco International Airport",
    "city":"San Francisco",
    "state":"California",
    "country":"United States",
    "woeid":"12521721",
    "tz":"America\/Los_Angeles",
    "phone":"(650) 821-8211",
    "type":"Airports",
    "email":"",
    "url":"http:\/\/www.flysfo.com",
    "runway_length":"11870",
    "elev":"12",
    "icao":"KSFO",
    "direct_flights":"147",
    "carriers":"76"
  },
  {
    "code":"SIN",
    "lat":"1.3578",
    "lon":"103.991",
    "name":"Singapore Changi Airport",
    "city":"Singapore",
    "state":"South East",
    "country":"Singapore",
    "woeid":"12517525",
    "tz":"Asia\/Singapore",
    "phone":"(65) 6542 1122",
    "type":"Airports",
    "email":"",
    "url":"http:\/\/www.changiairport.com.sg\/",
    "runway_length":"13200",
    "elev":"65",
    "icao":"WSSS",
    "direct_flights":"108",
    "carriers":"80"
  },
  {
    "code":"SLC",
    "lat":"40.7862",
    "lon":"-111.982",
    "name":"Salt Lake City International Airport",
    "city":"Salt Lake City",
    "state":"Utah",
    "country":"United States",
    "woeid":"12521709",
    "tz":"America\/Denver",
    "phone":"",
    "type":"Airports",
    "email":"",
    "url":"",
    "runway_length":"12003",
    "elev":"4226",
    "icao":"KSLC",
    "direct_flights":"104",
    "carriers":"38"
  },
  {
    "code":"STN",
    "lat":"51.8894",
    "lon":"0.26151",
    "name":"London Stansted International Airport",
    "city":"Stansted Mountfitchet",
    "state":"England",
    "country":"United Kingdom",
    "woeid":"22489156",
    "tz":"Europe\/London",
    "phone":"",
    "type":"Airports",
    "email":"",
    "url":"http:\/\/www.stanstedairport.com\/",
    "runway_length":"10000",
    "elev":"347",
    "icao":"EGSS",
    "direct_flights":"168",
    "carriers":"25"
  },
  {
    "code":"STR",
    "lat":"48.6895",
    "lon":"9.19298",
    "name":"Stuttgart Airport",
    "city":"Stuttgart",
    "state":"Baden-Wurttemberg",
    "country":"Germany",
    "woeid":"22236827",
    "tz":"Europe\/Berlin",
    "phone":"",
    "type":"Airports",
    "email":"",
    "url":"",
    "runway_length":"8366",
    "elev":"1300",
    "icao":"EDDS",
    "direct_flights":"116",
    "carriers":"51"
  },
  {
    "code":"SVO",
    "lat":"55.9621",
    "lon":"37.4189",
    "name":"Sheremtyevo Airport",
    "city":"Zelenograd",
    "state":"Moskovskaya Oblast",
    "country":"Russia",
    "woeid":"12516860",
    "tz":"Europe\/Moscow",
    "phone":"",
    "type":"Airports",
    "email":"",
    "url":"http:\/\/www.sheremetyevo-airport.ru",
    "runway_length":"12139",
    "elev":"623",
    "icao":"UUEE",
    "direct_flights":"140",
    "carriers":"48"
  },
  {
    "code":"TXL",
    "lat":"52.5548",
    "lon":"13.289",
    "name":"Berlin-Tegel International Airport",
    "city":"Berlin",
    "state":"Berlin",
    "country":"Germany",
    "woeid":"22164086",
    "tz":"Europe\/Berlin",
    "phone":"0180 5000 186 (0,12 Euro",
    "type":"Airports",
    "email":"",
    "url":"http:\/\/www.berlin-airport.de\/PubEnglish\/PubTegel\/index.php?",
    "runway_length":"9918",
    "elev":"121",
    "icao":"EDDT",
    "direct_flights":"101",
    "carriers":"70"
  },
  {
    "code":"VIE",
    "lat":"48.1036",
    "lon":"16.5804",
    "name":"Vienna Schwechat International Airport",
    "city":"Klein-Neusiedl",
    "state":"Lower Austria",
    "country":"Austria",
    "woeid":"22022012",
    "tz":"Europe\/Vienna",
    "phone":"",
    "type":"Airports",
    "email":"",
    "url":"http:\/\/www.viennaairport.com",
    "runway_length":"11811",
    "elev":"600",
    "icao":"LOWW",
    "direct_flights":"183",
    "carriers":"96"
  },
  {
    "code":"WAW",
    "lat":"52.17",
    "lon":"20.9725",
    "name":"Okecie International Airport",
    "city":"Warsaw",
    "state":"Mazowieckie",
    "country":"Poland",
    "woeid":"12515363",
    "tz":"Europe\/Warsaw",
    "phone":"+48 (22) 650 42 20",
    "type":"Airports",
    "email":"",
    "url":"http:\/\/www.lotnisko-chopina.pl\/",
    "runway_length":"9852",
    "elev":"354",
    "icao":"EPWA",
    "direct_flights":"102",
    "carriers":"60"
  },
  {
    "code":"YUL",
    "lat":"45.4562",
    "lon":"-73.7473",
    "name":"Aéroport International Pierre-Elliott-Trudeau d",
    "city":"Dorval",
    "state":"Quebec",
    "country":"Canada",
    "woeid":"12511638",
    "tz":"America\/Toronto",
    "phone":"514 394 7377",
    "type":"Airports",
    "email":"",
    "url":"http:\/\/www.admtl.com",
    "runway_length":"11000",
    "elev":"117",
    "icao":"CYUL",
    "direct_flights":"104",
    "carriers":"57"
  },
  {
    "code":"YYZ",
    "lat":"43.685",
    "lon":"-79.6142",
    "name":"Toronto Lester B Pearson International Airport",
    "city":"Mississauga",
    "state":"Ontario",
    "country":"Canada",
    "woeid":"12511883",
    "tz":"America\/Toronto",
    "phone":"",
    "type":"Airports",
    "email":"",
    "url":"http:\/\/www.gtaa.com\/",
    "runway_length":"11120",
    "elev":"569",
    "icao":"CYYZ",
    "direct_flights":"176",
    "carriers":"66"
  },
  {
    "code":"ZRH",
    "lat":"47.454",
    "lon":"8.56137",
    "name":"Zurich International Airport",
    "city":"Kloten",
    "state":"Canton of Zurich",
    "country":"Switzerland",
    "woeid":"22442771",
    "tz":"Europe\/Zurich",
    "phone":"+41 43 816 22 11",
    "type":"Airports",
    "email":"",
    "url":"http:\/\/www.zurich-airport.com",
    "runway_length":"12139",
    "elev":"1416",
    "icao":"LSZH",
    "direct_flights":"161",
    "carriers":"79"
  }
]
